{"type":"FeatureCollection","features":[{"type":"Feature","properties":{"FID":0,"Id":1,"Chapter":"Juneau Audubon Society","City":"Juneau","URL":"http://www.juneau-audubon-society.org/"},"geometry":{"type":"Point","coordinates":[-134.45685631,58.3157502]}},{"type":"Feature","properties":{"FID":1,"Id":2,"Chapter":"Anchorage Audubon Society","City":"Anchorage","URL":"http://www.anchorageaudubon.org/"},"geometry":{"type":"Point","coordinates":[-149.8750011,61.16888857]}},{"type":"Feature","properties":{"FID":2,"Id":3,"Chapter":"Arctic Audubon Society","City":"Fairbanks","URL":"http://arcticaudubon.org/"},"geometry":{"type":"Point","coordinates":[-147.7216597,64.84523413]}},{"type":"Feature","properties":{"FID":3,"Id":4,"Chapter":"Kodiak Audubon Society","City":"Kodiak","URL":"http://kodiakaudubon.blogspot.com/"},"geometry":{"type":"Point","coordinates":[-152.3945583,57.79525813]}},{"type":"Feature","properties":{"FID":4,"Id":5,"Chapter":"Prince William Sound Audubon Society","City":"Cordova","URL":"https://ak.audubon.org/get-involved/audubon-chapters-alaska"},"geometry":{"type":"Point","coordinates":[-145.7435082,60.54148217]}}]}